var fire = {"type":"FeatureCollection","name":"fire_department","crs":{"type":"name","properties":{"name":"urn:ogc:def:crs:OGC:1.3:CRS84"}},"features":[{"type":"Feature","properties":{"NAME":"LAYTON CITY FIRE DEPARTMENT STATION 53","TELEPHONE":"801-336-3940","ADDRESS":"199 NORTH FORT LANE","CITY":"LAYTON","ZIP":"84041","COUNTY":"DAVIS","X":-111.95798187,"Y":41.06302368},"geometry":{"type":"Point","coordinates":[-111.95799356416995,41.06302975600249]}},{"type":"Feature","properties":{"NAME":"PANGUITCH VOLUNTEER FIRE DEPARTMENT","TELEPHONE":"435-676-8585","ADDRESS":"36 NORTH 100 EAST","CITY":"PANGUITCH","ZIP":"84759","COUNTY":"GARFIELD","X":-112.43403108,"Y":37.82338406},"geometry":{"type":"Point","coordinates":[-112.43404246739755,37.82338979045778]}},{"type":"Feature","properties":{"NAME":"WEBER FIRE DISTRICT - HEADQUARTERS","TELEPHONE":"801-782-3580","ADDRESS":"2023 WEST 1300 NORTH","CITY":"OGDEN","ZIP":"84404","COUNTY":"WEBER","X":-112.02891982,"Y":41.28085422},"geometry":{"type":"Point","coordinates":[-112.02893157820256,41.28086037903108]}},{"type":"Feature","properties":{"NAME":"SOUTH DAVIS METRO FIRE AGENCY STATION 85","TELEPHONE":"801-677-2400","ADDRESS":"836 WEST 1100 NORTH","CITY":"NORTH SALT LAKE","ZIP":"84054","COUNTY":"DAVIS","X":-111.93246507,"Y":40.86206115},"geometry":{"type":"Point","coordinates":[-111.93247672987832,40.86206720080901]}},{"type":"Feature","properties":{"NAME":"PARK CITY FIRE DISTRICT STATION 37","TELEPHONE":"435-940-2500","ADDRESS":"6534 PROMONTORY RANCH ROAD","CITY":"PARK CITY","ZIP":"84098","COUNTY":"SUMMIT","X":-111.47090871,"Y":40.72335771},"geometry":{"type":"Point","coordinates":[-111.47092030760342,40.723363844001256]}},{"type":"Feature","properties":{"NAME":"PARAGONAH VOLUNTEER FIRE DEPARTMENT","TELEPHONE":"435-477-8979","ADDRESS":"80 WEST CENTER STREET","CITY":"PARAGONAH","ZIP":"84760","COUNTY":"IRON","X":-112.77643684,"Y":37.88624673},"geometry":{"type":"Point","coordinates":[-112.77644832039226,37.8862524283133]}},{"type":"Feature","properties":{"NAME":"PRICE CITY FIRE DEPARTMENT","TELEPHONE":"435-636-3187","ADDRESS":"87 NORTH 200 EAST","CITY":"PRICE","ZIP":"84501","COUNTY":"CARBON","X":-110.80769305,"Y":39.60068052},"geometry":{"type":"Point","coordinates":[-110.8077043031654,39.60068659271934]}},{"type":"Feature","properties":{"NAME":"AURORA FIRE DEPARTMENT","TELEPHONE":"435-529-7643","ADDRESS":"250 NORTH 200 WEST","CITY":"AURORA","ZIP":"84620","COUNTY":"SEVIER","X":-111.93787735,"Y":38.92443476},"geometry":{"type":"Point","coordinates":[-111.93788879739412,38.924440631877474]}},{"type":"Feature","properties":{"NAME":"SANDY CITY FIRE DEPARTMENT STATION 35","TELEPHONE":"801-568-2835","ADDRESS":"8186 SOUTH 1300 EAST","CITY":"SANDY","ZIP":"84094","COUNTY":"SALT LAKE","X":-111.85359965,"Y":40.60263232},"geometry":{"type":"Point","coordinates":[-111.8536112487534,40.602638387607556]}},{"type":"Feature","properties":{"NAME":"SANDY CITY FIRE DEPARTMENT STATION 34","TELEPHONE":"801-568-2934","ADDRESS":"10765 SOUTH 700 EAST","CITY":"SANDY","ZIP":"84070","COUNTY":"SALT LAKE","X":-111.87186273,"Y":40.55575185},"geometry":{"type":"Point","coordinates":[-111.87187441439943,40.55575788329162]}},{"type":"Feature","properties":{"NAME":"151 CES/CEF UTAH AIR NATIONAL GUARD FIRE DEPARTMENT-DOD","TELEPHONE":"801-245-2286","ADDRESS":"765 NORTH 2200 WEST","CITY":"SALT LAKE CITY","ZIP":"84116","COUNTY":"SALT LAKE","X":-111.95428504,"Y":40.78769087},"geometry":{"type":"Point","coordinates":[-111.95429669134865,40.78769693527073]}},{"type":"Feature","properties":{"NAME":"SANDY CITY FIRE DEPARTMENT STATION 33","TELEPHONE":"801-568-2933","ADDRESS":"2015 EAST 11270 SOUTH","CITY":"SANDY","ZIP":"84092","COUNTY":"SALT LAKE","X":-111.83339589,"Y":40.5464001},"geometry":{"type":"Point","coordinates":[-111.83340748583663,40.54640616144246]}},{"type":"Feature","properties":{"NAME":"SANDY CITY FIRE DEPARTMENT STATION 32","TELEPHONE":"801-568-2832","ADDRESS":"9475 SOUTH 2000 EAST","CITY":"SANDY","ZIP":"84092","COUNTY":"SALT LAKE","X":-111.83370008,"Y":40.57888535},"geometry":{"type":"Point","coordinates":[-111.83371173264692,40.57889141464335]}},{"type":"Feature","properties":{"NAME":"SMITHSONIAN FIRE DEPARTMENT","TELEPHONE":"435-877-1190","ADDRESS":"6802 MEADOWLARK DRIVE","CITY":"APPLE VALLEY","ZIP":"84737","COUNTY":"WASHINGTON","X":-113.1298702,"Y":37.10803418},"geometry":{"type":"Point","coordinates":[-113.12988165645606,37.108039717063775]}},{"type":"Feature","properties":{"NAME":"UNIFIED FIRE AUTHORITY STATION 116","TELEPHONE":"801-453-1259","ADDRESS":"8303 WASATCH BOULEVARD","CITY":"SALT LAKE CITY","ZIP":"84121","COUNTY":"SALT LAKE","X":-111.79656316,"Y":40.60025805},"geometry":{"type":"Point","coordinates":[-111.7965747670487,40.60026412716701]}},{"type":"Feature","properties":{"NAME":"UNIFIED FIRE AUTHORITY STATION 115","TELEPHONE":"801-569-8000","ADDRESS":"8495 WEST 10200 SOUTH","CITY":"COPPERTON","ZIP":"84006","COUNTY":"SALT LAKE","X":-112.09327055,"Y":40.5658701},"geometry":{"type":"Point","coordinates":[-112.09328222469719,40.56587616903067]}},{"type":"Feature","properties":{"NAME":"UNIFIED FIRE AUTHORITY STATION 114","TELEPHONE":"801-743-7100","ADDRESS":"14324 SOUTH FIREHOUSE ROAD","CITY":"DRAPER","ZIP":"84020","COUNTY":"SALT LAKE","X":-111.8758088,"Y":40.49170664},"geometry":{"type":"Point","coordinates":[-111.8758203657946,40.4917127125608]}},{"type":"Feature","properties":{"NAME":"UNIFIED FIRE AUTHORITY STATION 103","TELEPHONE":"801-743-7100","ADDRESS":"5916 WEST 13100 SOUTH","CITY":"HERRIMAN","ZIP":"84065","COUNTY":"SALT LAKE","X":-112.0314503,"Y":40.51440404},"geometry":{"type":"Point","coordinates":[-112.03146192484712,40.514410110660435]}},{"type":"Feature","properties":{"NAME":"UNIFIED FIRE AUTHORITY STATION 102","TELEPHONE":"801-250-2212","ADDRESS":"8609 WEST 2700 SOUTH","CITY":"MAGNA","ZIP":"84044","COUNTY":"SALT LAKE","X":-112.09764602,"Y":40.71087565},"geometry":{"type":"Point","coordinates":[-112.09765772979989,40.710881737285035]}},{"type":"Feature","properties":{"NAME":"UNIFIED FIRE AUTHORITY STATION 118","TELEPHONE":"801-840-1511","ADDRESS":"5317 SOUTH 2700 WEST","CITY":"TAYLORSVILLE","ZIP":"84118","COUNTY":"SALT LAKE","X":-111.95720141,"Y":40.65478155},"geometry":{"type":"Point","coordinates":[-111.95721309078306,40.654787592935804]}},{"type":"Feature","properties":{"NAME":"UTAH VALLEY UNIVERSITY UTAH FIRE AND RESCUE ACADEMY","TELEPHONE":"801-863-7700","ADDRESS":"3131 MIKE JENSE PARKWAY","CITY":"PROVO","ZIP":"84601","COUNTY":"UTAH","X":-111.71407799,"Y":40.21934709},"geometry":{"type":"Point","coordinates":[-111.7140895774869,40.21935314190114]}},{"type":"Feature","properties":{"NAME":"SALT LAKE CITY FIRE DEPARTMENT STATION 6","TELEPHONE":"801-596-5246","ADDRESS":"948 WEST 800 SOUTH","CITY":"SALT LAKE CITY","ZIP":"84104","COUNTY":"SALT LAKE","X":-111.9185316,"Y":40.75228203},"geometry":{"type":"Point","coordinates":[-111.9185432857982,40.752288136727316]}},{"type":"Feature","properties":{"NAME":"SALT LAKE CITY FIRE DEPARTMENT STATION 5","TELEPHONE":"801-596-5245","ADDRESS":"1023 EAST 900 SOUTH","CITY":"SALT LAKE CITY","ZIP":"84105","COUNTY":"SALT LAKE","X":-111.86150485,"Y":40.75019527},"geometry":{"type":"Point","coordinates":[-111.86151654093288,40.75020132378819]}},{"type":"Feature","properties":{"NAME":"SALT LAKE CITY FIRE DEPARTMENT STATION 3","TELEPHONE":"801-596-5243","ADDRESS":"1085 EAST SIMPSON AVENUE","CITY":"SALT LAKE CITY","ZIP":"84106","COUNTY":"SALT LAKE","X":-111.85989095,"Y":40.72240822},"geometry":{"type":"Point","coordinates":[-111.85990255582817,40.72241429844155]}},{"type":"Feature","properties":{"NAME":"SALT LAKE CITY FIRE DEPARTMENT STATION 14","TELEPHONE":"801-596-5254","ADDRESS":"1560 SOUTH INDUSTRIAL ROAD","CITY":"SALT LAKE CITY","ZIP":"84104","COUNTY":"SALT LAKE","X":-111.94503484,"Y":40.73653818},"geometry":{"type":"Point","coordinates":[-111.94504655561173,40.73654429011606]}},{"type":"Feature","properties":{"NAME":"PROVO FIRE AND RESCUE STATION 4","TELEPHONE":"801-852-6324","ADDRESS":"90 SOUTH 2050 WEST","CITY":"PROVO","ZIP":"84601","COUNTY":"UTAH","X":-111.69454557,"Y":40.23263315},"geometry":{"type":"Point","coordinates":[-111.69455716510794,40.23263914888298]}},{"type":"Feature","properties":{"NAME":"PLAIN CITY FIRE DEPARTMENT","TELEPHONE":"801-731-1110","ADDRESS":"4132 WEST 2200 NORTH","CITY":"PLAIN CITY","ZIP":"84404","COUNTY":"WEBER","X":-112.07924186,"Y":41.29817948},"geometry":{"type":"Point","coordinates":[-112.079253641842,41.298185579468395]}},{"type":"Feature","properties":{"NAME":"PARK CITY FIRE DISTRICT STATION 33 - HEADQUARTERS","TELEPHONE":"435-940-2500","ADDRESS":"730 WEST BITNER ROAD","CITY":"PARK CITY","ZIP":"84098","COUNTY":"SUMMIT","X":-111.52470304,"Y":40.72296453},"geometry":{"type":"Point","coordinates":[-111.52471458529311,40.72297068287179]}},{"type":"Feature","properties":{"NAME":"PARK CITY FIRE DISTRICT STATION 32","TELEPHONE":"435-940-2500","ADDRESS":"180 MAPLE DRIVE","CITY":"PARK CITY","ZIP":"84098","COUNTY":"SUMMIT","X":-111.62087678,"Y":40.75111068},"geometry":{"type":"Point","coordinates":[-111.62088839298582,40.75111682856328]}},{"type":"Feature","properties":{"NAME":"PARK CITY FIRE DISTRICT STATION 31","TELEPHONE":"435-940-2500","ADDRESS":"1353 PARK AVENUE","CITY":"PARK CITY","ZIP":"84060","COUNTY":"SUMMIT","X":-111.50413881,"Y":40.65278477},"geometry":{"type":"Point","coordinates":[-111.50415041738609,40.652790872666856]}},{"type":"Feature","properties":{"NAME":"OGDEN CITY FIRE DEPARTMENT STATION 6","TELEPHONE":"801-629-8069","ADDRESS":"331 STANDARD WAY","CITY":"OGDEN","ZIP":"84404","COUNTY":"WEBER","X":-111.99118098,"Y":41.25875295},"geometry":{"type":"Point","coordinates":[-111.99119269824479,41.258759073298336]}},{"type":"Feature","properties":{"NAME":"NORTH TOOELE COUNTY FIRE SERVICE DISTRICT STATION 1 - LAKE POINT","TELEPHONE":"801-250-6730","ADDRESS":"1540 SUNSET ROAD","CITY":"LAKE POINT","ZIP":"84074","COUNTY":"TOOELE","X":-112.26841283,"Y":40.68066775},"geometry":{"type":"Point","coordinates":[-112.26842453770155,40.68067381419689]}},{"type":"Feature","properties":{"NAME":"LITTLE SAHARA FIRE GUARD STATION","TELEPHONE":"435-433-5970","ADDRESS":"27020 WEST SAND MOUNTAIN ROAD","CITY":"EUREKA","ZIP":"84628","COUNTY":"JUAB","X":-112.30575141,"Y":39.72712535},"geometry":{"type":"Point","coordinates":[-112.30576307806302,39.72713128255276]}},{"type":"Feature","properties":{"NAME":"VERNON FIRE DEPARTMENT","TELEPHONE":"435-839-3509","ADDRESS":"325 SOUTH MAIN STREET","CITY":"VERNON","ZIP":"84080","COUNTY":"TOOELE","X":-112.43321535,"Y":40.08692727},"geometry":{"type":"Point","coordinates":[-112.43322699744397,40.08693321630852]}},{"type":"Feature","properties":{"NAME":"WEST JORDAN CITY FIRE DEPARTMENT STATION 53","TELEPHONE":"801-260-7300","ADDRESS":"7602 SOUTH JORDAN LANDING BOULEVARD","CITY":"WEST JORDAN","ZIP":"84084","COUNTY":"SALT LAKE","X":-111.98495119,"Y":40.61343558},"geometry":{"type":"Point","coordinates":[-111.98496286468156,40.61344162129825]}},{"type":"Feature","properties":{"NAME":"CITY OF SOUTH SALT LAKE FIRE DEPARTMENT STATION 41 - HEADQUARTERS","TELEPHONE":"801-483-6043","ADDRESS":"2600 SOUTH MAIN STREET","CITY":"SOUTH SALT LAKE CITY","ZIP":"84115","COUNTY":"SALT LAKE","X":-111.89144728,"Y":40.71382305},"geometry":{"type":"Point","coordinates":[-111.89145890031892,40.71382913422468]}},{"type":"Feature","properties":{"NAME":"NORTH LOGAN FIRE AND RESCUE","TELEPHONE":"435-755-5739","ADDRESS":"2005 NORTH 1200 EAST","CITY":"NORTH LOGAN","ZIP":"84341","COUNTY":"CACHE","X":-111.80498013,"Y":41.76736206},"geometry":{"type":"Point","coordinates":[-111.80499188514113,41.767368241247425]}},{"type":"Feature","properties":{"NAME":"GRANTSVILLE FIRE DEPARTMENT","TELEPHONE":"435-884-3343","ADDRESS":"26 NORTH CENTER STREET","CITY":"GRANTSVILLE","ZIP":"84029","COUNTY":"TOOELE","X":-112.4690805,"Y":40.60073834},"geometry":{"type":"Point","coordinates":[-112.46909221270454,40.600744384622715]}},{"type":"Feature","properties":{"NAME":"SOUTH OGDEN FIRE DEPARTMENT STATION 82","TELEPHONE":"801-622-2766","ADDRESS":"5635 SOUTH WASATCH DRIVE","CITY":"OGDEN","ZIP":"84403","COUNTY":"WEBER","X":-111.93948096,"Y":41.16080774},"geometry":{"type":"Point","coordinates":[-111.93949266387546,41.160813825777836]}},{"type":"Feature","properties":{"NAME":"MOAB VALLEY FIRE PROTECTION DISTRICT STATION 3","TELEPHONE":"435-259-5557","ADDRESS":"4012 BEEMAN ROAD","CITY":"MOAB","ZIP":"84532","COUNTY":"GRAND","X":-109.47807384,"Y":38.51219584},"geometry":{"type":"Point","coordinates":[-109.47808466921589,38.51220181072006]}},{"type":"Feature","properties":{"NAME":"TOOELE CITY FIRE DEPARTMENT STATION 2","TELEPHONE":"435-882-2215","ADDRESS":"82 NORTH 7TH STREET","CITY":"TOOELE","ZIP":"84074","COUNTY":"TOOELE","X":-112.28307579,"Y":40.5320282},"geometry":{"type":"Point","coordinates":[-112.2830875099122,40.532034188593514]}},{"type":"Feature","properties":{"NAME":"SOUTH DAVIS METRO FIRE AGENCY STATION 81","TELEPHONE":"801-677-2400","ADDRESS":"255 SOUTH 100 WEST","CITY":"BOUNTIFUL","ZIP":"84010","COUNTY":"DAVIS","X":-111.88248371,"Y":40.88653204},"geometry":{"type":"Point","coordinates":[-111.88249535949689,40.88653813329665]}},{"type":"Feature","properties":{"NAME":"NORTH VIEW FIRE AGENCY","TELEPHONE":"801-782-8159","ADDRESS":"315 EAST 2550 NORTH","CITY":"OGDEN","ZIP":"84414","COUNTY":"WEBER","X":-111.97178204,"Y":41.30359117},"geometry":{"type":"Point","coordinates":[-111.97179378450016,41.30359733890509]}},{"type":"Feature","properties":{"NAME":"WASHINGTON TERRACE FIRE DEPARTMENT STATION 51","TELEPHONE":"801-393-6349","ADDRESS":"4700 SOUTH 300 WEST","CITY":"OGDEN","ZIP":"84405","COUNTY":"WEBER","X":-111.98330034,"Y":41.17775542},"geometry":{"type":"Point","coordinates":[-111.98331207649795,41.177761583377674]}},{"type":"Feature","properties":{"NAME":"ROCKVILLE / SPRINGDALE FIRE PROTECTION DISTRICT","TELEPHONE":"435-772-3065","ADDRESS":"1130 ZION PARK BOULEVARD","CITY":"HURRICANE","ZIP":"84737","COUNTY":"WASHINGTON","X":-113.0024375,"Y":37.18586999},"geometry":{"type":"Point","coordinates":[-113.00244891759871,37.18587556402349]}},{"type":"Feature","properties":{"NAME":"ST. GEORGE FIRE DEPARTMENT STATION 1","TELEPHONE":"435-634-5844","ADDRESS":"51 SOUTH 1000 EAST","CITY":"SAINT GEORGE","ZIP":"84770","COUNTY":"WASHINGTON","X":-113.5616208,"Y":37.1072437},"geometry":{"type":"Point","coordinates":[-113.56163236028618,37.1072492100123]}},{"type":"Feature","properties":{"NAME":"HURRICANE CITY FIRE DEPARTMENT STATION 1","TELEPHONE":"435-635-9562","ADDRESS":"202 EAST STATE STREET","CITY":"HURRICANE","ZIP":"84737","COUNTY":"WASHINGTON","X":-113.28409386,"Y":37.17628469},"geometry":{"type":"Point","coordinates":[-113.28410541707217,37.17629027180078]}},{"type":"Feature","properties":{"NAME":"HILDALE FIRE DEPARTMENT","TELEPHONE":"435-874-2400","ADDRESS":"340 NEWEL AVENUE","CITY":"HURRICANE","ZIP":"84737","COUNTY":"WASHINGTON","X":-112.96585209,"Y":37.00572631},"geometry":{"type":"Point","coordinates":[-112.9658635014153,37.00573183895864]}},{"type":"Feature","properties":{"NAME":"SANTA CLARA VOLUNTEER FIRE DEPARTMENT","TELEPHONE":"435-673-6712","ADDRESS":"2365 RACHEL DRIVE","CITY":"SANTA CLARA","ZIP":"84765","COUNTY":"WASHINGTON","X":-113.66133294,"Y":37.14850843},"geometry":{"type":"Point","coordinates":[-113.66134452857682,37.14851392760079]}},{"type":"Feature","properties":{"NAME":"DAMMERON VALLEY VOLUNTEER FIRE DEPARTMENT","TELEPHONE":"435-574-2288","ADDRESS":"1261 DAMMERON VALLEY DRIVE EAST","CITY":"DAMMERON VALLEY","ZIP":"84783","COUNTY":"WASHINGTON","X":-113.66867428,"Y":37.30659552},"geometry":{"type":"Point","coordinates":[-113.66868586291247,37.30660110260442]}},{"type":"Feature","properties":{"NAME":"WOODLAND HILLS FIRE DEPARTMENT","TELEPHONE":"801-423-3620","ADDRESS":"690 SOUTH WOODLAND HILLS DRIVE","CITY":"WOODLAND HILLS","ZIP":"84653","COUNTY":"UTAH","X":-111.64823144,"Y":40.01169171},"geometry":{"type":"Point","coordinates":[-111.64824295127835,40.01169775970658]}},{"type":"Feature","properties":{"NAME":"WEST VALLEY CITY FIRE DEPARTMENT STATION 73","TELEPHONE":"801-963-3336","ADDRESS":"2834 SOUTH 2700 WEST","CITY":"WEST VALLEY CITY","ZIP":"84119","COUNTY":"SALT LAKE","X":-111.95874716,"Y":40.70842437},"geometry":{"type":"Point","coordinates":[-111.95875883536723,40.70843039410357]}},{"type":"Feature","properties":{"NAME":"WEST JORDAN CITY FIRE DEPARTMENT STATION 54","TELEPHONE":"801-280-6600","ADDRESS":"9351 SOUTH 5595 WEST","CITY":"WEST JORDAN","ZIP":"84088","COUNTY":"SALT LAKE","X":-112.02351322,"Y":40.5821578},"geometry":{"type":"Point","coordinates":[-112.0235248763239,40.582163848628795]}},{"type":"Feature","properties":{"NAME":"WEST JORDAN CITY FIRE DEPARTMENT STATION 52","TELEPHONE":"801-260-7370","ADDRESS":"7950 SOUTH REDWOOD ROAD","CITY":"WEST JORDAN","ZIP":"84088","COUNTY":"SALT LAKE","X":-111.93931546,"Y":40.60696777},"geometry":{"type":"Point","coordinates":[-111.93932715647088,40.606973879982604]}},{"type":"Feature","properties":{"NAME":"WENDOVER AIRPORT FIRE DEPARTMENT","TELEPHONE":"435-665-2264","ADDRESS":"345 AIRPORT APRON","CITY":"WENDOVER","ZIP":"84083","COUNTY":"TOOELE","X":-114.03149731,"Y":40.72797185},"geometry":{"type":"Point","coordinates":[-114.031509404524,40.72797774351898]}},{"type":"Feature","properties":{"NAME":"WELLSVILLE FIRE DEPARTMENT STATION 60","TELEPHONE":"435-245-0795","ADDRESS":"65 EAST MAIN STREET","CITY":"WELLSVILLE","ZIP":"84339","COUNTY":"CACHE","X":-111.93261818,"Y":41.63896529},"geometry":{"type":"Point","coordinates":[-111.93263000492368,41.63897145654215]}},{"type":"Feature","properties":{"NAME":"WEBER FIRE DISTRICT STATION 64","TELEPHONE":"801-479-6150","ADDRESS":"2175 EAST EASTWOOD BOULEVARD","CITY":"OGDEN","ZIP":"84403","COUNTY":"WEBER","X":-111.925955,"Y":41.15488529},"geometry":{"type":"Point","coordinates":[-111.92596671896439,41.15489144535587]}},{"type":"Feature","properties":{"NAME":"WEBER FIRE DISTRICT STATION 63","TELEPHONE":"801-731-0028","ADDRESS":"4646 WEST 4000 SOUTH","CITY":"WEST HAVEN","ZIP":"84401","COUNTY":"WEBER","X":-112.09190751,"Y":41.19111541},"geometry":{"type":"Point","coordinates":[-112.09191922978124,41.19112148752913]}},{"type":"Feature","properties":{"NAME":"WEBER FIRE DISTRICT STATION 62","TELEPHONE":"801-745-2315","ADDRESS":"5550 EAST 2200 NORTH","CITY":"EDEN","ZIP":"84310","COUNTY":"WEBER","X":-111.81417197,"Y":41.29934489},"geometry":{"type":"Point","coordinates":[-111.81418366811386,41.299351002258845]}},{"type":"Feature","properties":{"NAME":"SYRACUSE FIRE DEPARTMENT","TELEPHONE":"801-614-9614","ADDRESS":"1869 SOUTH 3000 WEST","CITY":"SYRACUSE","ZIP":"84075","COUNTY":"DAVIS","X":-112.08332101,"Y":41.08665151},"geometry":{"type":"Point","coordinates":[-112.08333274152847,41.08665757667262]}},{"type":"Feature","properties":{"NAME":"ST. GEORGE FIRE DEPARTMENT STATION 6","TELEPHONE":"435-634-5997","ADDRESS":"184 NORTH 2450 EAST","CITY":"SAINT GEORGE","ZIP":"84790","COUNTY":"WASHINGTON","X":-113.53134245,"Y":37.11167988},"geometry":{"type":"Point","coordinates":[-113.53135400044124,37.11168541695275]}},{"type":"Feature","properties":{"NAME":"ST. GEORGE FIRE DEPARTMENT STATION 3","TELEPHONE":"435-634-5820","ADDRESS":"2315 SOUTH RIVER ROAD","CITY":"SAINT GEORGE","ZIP":"84790","COUNTY":"WASHINGTON","X":-113.55020022,"Y":37.06887559},"geometry":{"type":"Point","coordinates":[-113.55021182295758,37.06888116174491]}},{"type":"Feature","properties":{"NAME":"SPRING CITY VOLUNTEER FIRE DEPARTMENT","TELEPHONE":"435-462-2244","ADDRESS":"150 EAST CENTER STREET","CITY":"SPRING CITY","ZIP":"84662","COUNTY":"SANPETE","X":-111.49295031,"Y":39.47785004},"geometry":{"type":"Point","coordinates":[-111.49296169211323,39.477855968528445]}},{"type":"Feature","properties":{"NAME":"SOUTH WEBER CITY FIRE DEPARTMENT","TELEPHONE":"801-476-8907","ADDRESS":"7355 SOUTH 1375 EAST","CITY":"SOUTH WEBER","ZIP":"84405","COUNTY":"DAVIS","X":-111.94501406,"Y":41.13312524},"geometry":{"type":"Point","coordinates":[-111.94502572637515,41.13313132797731]}},{"type":"Feature","properties":{"NAME":"UNIFIED FIRE AUTHORITY STATION 109","TELEPHONE":"801-965-9619","ADDRESS":"4444 WEST 5415 SOUTH","CITY":"KEARNS","ZIP":"84118","COUNTY":"SALT LAKE","X":-111.99672447,"Y":40.65305895},"geometry":{"type":"Point","coordinates":[-111.99673611203161,40.653065044599316]}},{"type":"Feature","properties":{"NAME":"UNIFIED FIRE AUTHORITY STATION 107","TELEPHONE":"801-967-4416","ADDRESS":"6305 SOUTH 5600 WEST","CITY":"WEST JORDAN","ZIP":"84084","COUNTY":"SALT LAKE","X":-112.02400528,"Y":40.63657937},"geometry":{"type":"Point","coordinates":[-112.02401693031743,40.636585391309495]}},{"type":"Feature","properties":{"NAME":"UNIFIED FIRE AUTHORITY STATION 105","TELEPHONE":"801-571-2321","ADDRESS":"780 EAST 12300 SOUTH","CITY":"DRAPER","ZIP":"84020","COUNTY":"SALT LAKE","X":-111.86932106,"Y":40.52653054},"geometry":{"type":"Point","coordinates":[-111.86933273460932,40.526536558099735]}},{"type":"Feature","properties":{"NAME":"UNIFIED FIRE AUTHORITY STATION 104","TELEPHONE":"801-278-6633","ADDRESS":"4625 SOUTH HOLLADAY BOULEVARD","CITY":"SALT LAKE CITY","ZIP":"84117","COUNTY":"SALT LAKE","X":-111.82561114,"Y":40.67018526},"geometry":{"type":"Point","coordinates":[-111.82562275295811,40.6701913555907]}},{"type":"Feature","properties":{"NAME":"UNIFIED FIRE AUTHORITY STATION 117","TELEPHONE":"801-264-2224","ADDRESS":"4545 SOUTH REDWOOD ROAD","CITY":"TAYLORSVILLE","ZIP":"84123","COUNTY":"SALT LAKE","X":-111.93839942,"Y":40.67161295},"geometry":{"type":"Point","coordinates":[-111.93841112820598,40.67161898173231]}},{"type":"Feature","properties":{"NAME":"UNIFIED FIRE AUTHORITY STATION 110","TELEPHONE":"801-743-7100","ADDRESS":"1790 FORT UNION BOULEVARD","CITY":"SALT LAKE CITY","ZIP":"84121","COUNTY":"SALT LAKE","X":-111.84104305,"Y":40.62448347},"geometry":{"type":"Point","coordinates":[-111.84105468215353,40.62448956879149]}},{"type":"Feature","properties":{"NAME":"CITY OF SOUTH SALT LAKE FIRE DEPARTMENT STATION 43","TELEPHONE":"801-262-9155","ADDRESS":"3620 SOUTH WEST TEMPLE","CITY":"SOUTH SALT LAKE CITY","ZIP":"84115","COUNTY":"SALT LAKE","X":-111.89444097,"Y":40.69222305},"geometry":{"type":"Point","coordinates":[-111.89445263032627,40.69222908250197]}},{"type":"Feature","properties":{"NAME":"SALT LAKE CITY FIRE DEPARTMENT STATION 8","TELEPHONE":"801-596-5248","ADDRESS":"15 WEST 1300 SOUTH","CITY":"SALT LAKE CITY","ZIP":"84115","COUNTY":"SALT LAKE","X":-111.89155644,"Y":40.74129125},"geometry":{"type":"Point","coordinates":[-111.89156805460897,40.7412972878833]}},{"type":"Feature","properties":{"NAME":"SALT LAKE CITY FIRE DEPARTMENT STATION 7","TELEPHONE":"801-596-5247","ADDRESS":"273 NORTH 1000 WEST","CITY":"SALT LAKE CITY","ZIP":"84116","COUNTY":"SALT LAKE","X":-111.9201045,"Y":40.77537666},"geometry":{"type":"Point","coordinates":[-111.92011611458804,40.77538269802676]}},{"type":"Feature","properties":{"NAME":"SALT LAKE CITY FIRE DEPARTMENT STATION 12","TELEPHONE":"801-596-5252","ADDRESS":"1098 NORTH 4000 WEST","CITY":"SALT LAKE CITY","ZIP":"84116","COUNTY":"SALT LAKE","X":-111.98830383,"Y":40.79298403},"geometry":{"type":"Point","coordinates":[-111.98831545996683,40.79299008086542]}},{"type":"Feature","properties":{"NAME":"SALT LAKE CITY FIRE DEPARTMENT STATION 11","TELEPHONE":"801-596-5251","ADDRESS":"581 NORTH 2360 WEST","CITY":"SALT LAKE CITY","ZIP":"84116","COUNTY":"SALT LAKE","X":-111.95813672,"Y":40.78201438},"geometry":{"type":"Point","coordinates":[-111.95814837084288,40.782020448458354]}},{"type":"Feature","properties":{"NAME":"SALT LAKE CITY FIRE DEPARTMENT STATION 10","TELEPHONE":"801-596-5250","ADDRESS":"785 SOUTH ARAPEEN DRIVE","CITY":"SALT LAKE CITY","ZIP":"84108","COUNTY":"SALT LAKE","X":-111.82602949,"Y":40.75222768},"geometry":{"type":"Point","coordinates":[-111.82604117384432,40.752233740915926]}},{"type":"Feature","properties":{"NAME":"SALT LAKE CITY FIRE DEPARTMENT STATION 1","TELEPHONE":"801-596-5241","ADDRESS":"211 SOUTH 500 EAST","CITY":"SALT LAKE CITY","ZIP":"84102","COUNTY":"SALT LAKE","X":-111.87622891,"Y":40.76468918},"geometry":{"type":"Point","coordinates":[-111.87624053749732,40.7646952617672]}},{"type":"Feature","properties":{"NAME":"ROY CITY FIRE AND RESCUE STATION 31","TELEPHONE":"801-774-1080","ADDRESS":"5051 SOUTH 1900 WEST","CITY":"ROY","ZIP":"84067","COUNTY":"WEBER","X":-112.02649376,"Y":41.17222766},"geometry":{"type":"Point","coordinates":[-112.02650550260631,41.17223378144962]}},{"type":"Feature","properties":{"NAME":"ROCKY RIDGE FIRE DEPARTMENT","TELEPHONE":"435-623-1707","ADDRESS":"278 NORTH LARKRIDGE DRIVE","CITY":"ROCKY RIDGE","ZIP":"84645","COUNTY":"JUAB","X":-111.82274215,"Y":39.9381964},"geometry":{"type":"Point","coordinates":[-111.82275372258681,39.938202374552475]}},{"type":"Feature","properties":{"NAME":"RICHMOND FIRE DEPARTMENT","TELEPHONE":"435-258-5415","ADDRESS":"40 EAST MAIN STREET","CITY":"RICHMOND","ZIP":"84333","COUNTY":"CACHE","X":-111.80743464,"Y":41.92233959},"geometry":{"type":"Point","coordinates":[-111.80744639061948,41.92234583687218]}},{"type":"Feature","properties":{"NAME":"PROVO FIRE AND RESCUE STATION 2","TELEPHONE":"801-852-6322","ADDRESS":"2737 NORTH CANYON ROAD","CITY":"PROVO","ZIP":"84604","COUNTY":"UTAH","X":-111.65318896,"Y":40.27020749},"geometry":{"type":"Point","coordinates":[-111.65320046676874,40.27021355253248]}},{"type":"Feature","properties":{"NAME":"PORTAGE FIRE AND RESCUE","TELEPHONE":"435-866-3119","ADDRESS":"25880 NORTH 9000 WEST","CITY":"PORTAGE","ZIP":"84331","COUNTY":"BOX ELDER","X":-112.24163189,"Y":41.97731011},"geometry":{"type":"Point","coordinates":[-112.24164384387376,41.977316338723426]}},{"type":"Feature","properties":{"NAME":"PLYMOUTH FIRE DEPARTMENT","TELEPHONE":"435-458-3646","ADDRESS":"20160 NORTH 5200 WEST STREET","CITY":"PLYMOUTH","ZIP":"84330","COUNTY":"BOX ELDER","X":-112.1464548,"Y":41.87430832},"geometry":{"type":"Point","coordinates":[-112.14646664781856,41.87431452922209]}},{"type":"Feature","properties":{"NAME":"PINE VALLEY FIRE DEPARTMENT","TELEPHONE":"435-574-2162","ADDRESS":"680 EAST MAIN STREET","CITY":"PINE VALLEY","ZIP":"84781","COUNTY":"WASHINGTON","X":-113.50205648,"Y":37.3868593},"geometry":{"type":"Point","coordinates":[-113.5020680032024,37.38686485937944]}},{"type":"Feature","properties":{"NAME":"PAYSON FIRE DEPARTMENT","TELEPHONE":"801-465-5250","ADDRESS":"45 EAST 100 SOUTH","CITY":"PAYSON","ZIP":"84651","COUNTY":"UTAH","X":-111.73123475,"Y":40.04273821},"geometry":{"type":"Point","coordinates":[-111.73124624777347,40.04274421232208]}},{"type":"Feature","properties":{"NAME":"PARADISE FIRE DEPARTMENT","TELEPHONE":"435-245-6737","ADDRESS":"9035 SOUTH 100 WEST STREET","CITY":"PARADISE","ZIP":"84328","COUNTY":"CACHE","X":-111.83610365,"Y":41.56789927},"geometry":{"type":"Point","coordinates":[-111.83611541863303,41.56790540527618]}},{"type":"Feature","properties":{"NAME":"OREM FIRE STATION 3","TELEPHONE":"801-229-7212","ADDRESS":"350 NORTH 1200 WEST","CITY":"OREM","ZIP":"84057","COUNTY":"UTAH","X":-111.72481735,"Y":40.30237178},"geometry":{"type":"Point","coordinates":[-111.72482889358946,40.30237786498236]}},{"type":"Feature","properties":{"NAME":"OREM FIRE STATION 2","TELEPHONE":"801-229-7029","ADDRESS":"911 NORTH MAIN STREET","CITY":"OREM","ZIP":"84057","COUNTY":"UTAH","X":-111.69623102,"Y":40.31401283},"geometry":{"type":"Point","coordinates":[-111.69624258514222,40.3140189175416]}},{"type":"Feature","properties":{"NAME":"OREM FIRE STATION 1","TELEPHONE":"801-229-7021","ADDRESS":"300 EAST 1000 SOUTH","CITY":"OREM","ZIP":"84058","COUNTY":"UTAH","X":-111.68824032,"Y":40.2784555},"geometry":{"type":"Point","coordinates":[-111.68825181556844,40.27846152135686]}},{"type":"Feature","properties":{"NAME":"OGDEN CITY FIRE DEPARTMENT STATION 5","TELEPHONE":"801-629-0685","ADDRESS":"3440 HARRISON BOULEVARD","CITY":"OGDEN","ZIP":"84403","COUNTY":"WEBER","X":-111.9482354,"Y":41.20054079},"geometry":{"type":"Point","coordinates":[-111.94824708318743,41.20054687881793]}},{"type":"Feature","properties":{"NAME":"OGDEN CITY FIRE DEPARTMENT STATION 4","TELEPHONE":"801-629-0684","ADDRESS":"730 WEST 24TH STREET","CITY":"OGDEN","ZIP":"84401","COUNTY":"WEBER","X":-111.99635483,"Y":41.22339956},"geometry":{"type":"Point","coordinates":[-111.99636655859854,41.223405653826774]}},{"type":"Feature","properties":{"NAME":"OGDEN CITY FIRE DEPARTMENT STATION 3","TELEPHONE":"801-629-0687","ADDRESS":"340 WASHINGTON BOULEVARD","CITY":"OGDEN","ZIP":"84404","COUNTY":"WEBER","X":-111.96925808,"Y":41.25686743},"geometry":{"type":"Point","coordinates":[-111.9692697970296,41.25687352045327]}},{"type":"Feature","properties":{"NAME":"OGDEN CITY FIRE DEPARTMENT STATION 2","TELEPHONE":"801-629-0686","ADDRESS":"1185 21ST STREET","CITY":"OGDEN","ZIP":"84401","COUNTY":"WEBER","X":-111.94862108,"Y":41.22843764},"geometry":{"type":"Point","coordinates":[-111.9486327568884,41.228443731076595]}},{"type":"Feature","properties":{"NAME":"OGDEN CITY FIRE DEPARTMENT STATION 1","TELEPHONE":"801-629-8069","ADDRESS":"2186 LINCOLN AVENUE","CITY":"OGDEN","ZIP":"84401","COUNTY":"WEBER","X":-111.97524507,"Y":41.22758578},"geometry":{"type":"Point","coordinates":[-111.97525684112446,41.227591934209215]}},{"type":"Feature","properties":{"NAME":"NORTH TOOELE COUNTY FIRE SERVICE DISTRICT STATION 3 - PINE CANYON","TELEPHONE":"435-882-6730","ADDRESS":"1553 EAST PINE CANYON ROAD","CITY":"TOOELE","ZIP":"84074","COUNTY":"TOOELE","X":-112.2611177,"Y":40.56611953},"geometry":{"type":"Point","coordinates":[-112.26112941450066,40.56612552776187]}},{"type":"Feature","properties":{"NAME":"NEPHI FIRE DEPARTMENT","TELEPHONE":"435-623-0822","ADDRESS":"21 EAST 100 NORTH","CITY":"NEPHI","ZIP":"84648","COUNTY":"JUAB","X":-111.83453254,"Y":39.71032269},"geometry":{"type":"Point","coordinates":[-111.83454409721611,39.71032862951586]}},{"type":"Feature","properties":{"NAME":"MURRAY CITY FIRE DEPARTMENT STATION 83","TELEPHONE":"801-264-2783","ADDRESS":"851 WEST BULLION STREET","CITY":"MURRAY","ZIP":"84123","COUNTY":"SALT LAKE","X":-111.91492026,"Y":40.64859981},"geometry":{"type":"Point","coordinates":[-111.91493195415148,40.64860588156154]}},{"type":"Feature","properties":{"NAME":"MOAB VALLEY FIRE PROTECTION DISTRICT STATION 2","TELEPHONE":"435-259-5557","ADDRESS":"2850 MURPHY LANE","CITY":"MOAB","ZIP":"84532","COUNTY":"GRAND","X":-109.48921006,"Y":38.53745359},"geometry":{"type":"Point","coordinates":[-109.48922098497832,38.53745959199421]}},{"type":"Feature","properties":{"NAME":"MOAB VALLEY FIRE PROTECTION DISTRICT STATION 1","TELEPHONE":"435-259-5557","ADDRESS":"45 SOUTH 100 EAST","CITY":"MOAB","ZIP":"84532","COUNTY":"GRAND","X":-109.5485497,"Y":38.57260586},"geometry":{"type":"Point","coordinates":[-109.54856059166292,38.572611832716916]}},{"type":"Feature","properties":{"NAME":"MIDVALE CITY FIRE DEPARTMENT STATION 21","TELEPHONE":"801-563-7125","ADDRESS":"7683 SOUTH HOLDEN STREET","CITY":"MIDVALE","ZIP":"84047","COUNTY":"SALT LAKE","X":-111.91260439,"Y":40.61125877},"geometry":{"type":"Point","coordinates":[-111.91261605063659,40.61126482235079]}},{"type":"Feature","properties":{"NAME":"MAPLETON FIRE DEPARTMENT","TELEPHONE":"801-489-5655","ADDRESS":"35 EAST MAPLE STREET","CITY":"MAPLETON","ZIP":"84664","COUNTY":"UTAH","X":-111.57829795,"Y":40.1306779},"geometry":{"type":"Point","coordinates":[-111.57830951693967,40.13068390448274]}},{"type":"Feature","properties":{"NAME":"MANTUA VOLUNTEER FIRE DEPARTMENT","TELEPHONE":"435-723-1833","ADDRESS":"180 WEST 100 SOUTH","CITY":"MANTUA","ZIP":"84324","COUNTY":"BOX ELDER","X":-111.9465194,"Y":41.49486944},"geometry":{"type":"Point","coordinates":[-111.94653114468792,41.494875558414776]}},{"type":"Feature","properties":{"NAME":"LAYTON CITY FIRE DEPARTMENT STATION 52","TELEPHONE":"801-336-3940","ADDRESS":"2701 NORTH CHURCH STREET","CITY":"LAYTON","ZIP":"84040","COUNTY":"DAVIS","X":-111.93952788,"Y":41.09954099},"geometry":{"type":"Point","coordinates":[-111.93953964576485,41.09954713318223]}},{"type":"Feature","properties":{"NAME":"HYRUM FIRST RESPONDERS","TELEPHONE":"435-245-6033","ADDRESS":"40 NORTH 100 WEST","CITY":"HYRUM","ZIP":"84319","COUNTY":"CACHE","X":-111.85765643,"Y":41.6349016},"geometry":{"type":"Point","coordinates":[-111.85766818430687,41.63490774912373]}},{"type":"Feature","properties":{"NAME":"GRANITE RANCH FIRE DEPARTMENT","TELEPHONE":"435-693-3163","ADDRESS":"GRANITE RANCH ROAD","CITY":"TROUT CREEK","ZIP":"84083","COUNTY":"JUAB","X":-113.73784875,"Y":39.7353078},"geometry":{"type":"Point","coordinates":[-113.73786064843415,39.73531360081182]}},{"type":"Feature","properties":{"NAME":"GENOLA FIRE DEPARTMENT","TELEPHONE":"801-360-2311","ADDRESS":"455 NORTH MAIN STREET","CITY":"GENOLA","ZIP":"84655","COUNTY":"UTAH","X":-111.84381043,"Y":40.00464719},"geometry":{"type":"Point","coordinates":[-111.84382198550531,40.004653174625105]}},{"type":"Feature","properties":{"NAME":"GARLAND FIRE DEPARTMENT","TELEPHONE":"435-257-3118","ADDRESS":"72 NORTH MAIN STREET","CITY":"GARLAND","ZIP":"84312","COUNTY":"BOX ELDER","X":-112.16224576,"Y":41.74172302},"geometry":{"type":"Point","coordinates":[-112.16225758602235,41.74172919805193]}},{"type":"Feature","properties":{"NAME":"ENTERPRISE VOLUNTEER FIRE DEPARTMENT","TELEPHONE":"435-878-2221","ADDRESS":"328 EAST 200 SOUTH STREET","CITY":"ENTERPRISE","ZIP":"84725","COUNTY":"WASHINGTON","X":-113.71588553,"Y":37.56993395},"geometry":{"type":"Point","coordinates":[-113.71589716043604,37.569939499964676]}},{"type":"Feature","properties":{"NAME":"DELTA FIRE DEPARTMENT","TELEPHONE":"435-864-2834","ADDRESS":"41 NORTH 200 WEST","CITY":"DELTA","ZIP":"84624","COUNTY":"MILLARD","X":-112.57963501,"Y":39.35292928},"geometry":{"type":"Point","coordinates":[-112.579646637741,39.35293518978955]}},{"type":"Feature","properties":{"NAME":"CEDAR CITY FIRE DEPARTMENT STATION 1","TELEPHONE":"435-586-2964","ADDRESS":"291 NORTH 800 WEST","CITY":"CEDAR CITY","ZIP":"84720","COUNTY":"IRON","X":-113.07421727,"Y":37.68237342},"geometry":{"type":"Point","coordinates":[-113.07422880127461,37.682379038683905]}},{"type":"Feature","properties":{"NAME":"CASTLE DALE FIRE DEPARTMENT","TELEPHONE":"435-381-5540","ADDRESS":"45 EAST 100 NORTH","CITY":"CASTLE DALE","ZIP":"84513","COUNTY":"EMERY","X":-111.01885687,"Y":39.21347736},"geometry":{"type":"Point","coordinates":[-111.0188681346965,39.213483324260665]}},{"type":"Feature","properties":{"NAME":"SOUTH DAVIS METRO FIRE AGENCY STATION 84","TELEPHONE":"801-677-2400","ADDRESS":"1995 SOUTH BOUNTIFUL BOULEVARD","CITY":"BOUNTIFUL","ZIP":"84010","COUNTY":"DAVIS","X":-111.84761125,"Y":40.86714057},"geometry":{"type":"Point","coordinates":[-111.84762286167705,40.867146677076164]}},{"type":"Feature","properties":{"NAME":"BIG WATER FIRE DEPARTMENT","TELEPHONE":"435-675-3790","ADDRESS":"50 AARON BURR","CITY":"BIG WATER","ZIP":"84741","COUNTY":"KANE","X":-111.66410094,"Y":37.07884197},"geometry":{"type":"Point","coordinates":[-111.66411213184512,37.078847605103135]}},{"type":"Feature","properties":{"NAME":"SUNSET FIRE DEPARTMENT","TELEPHONE":"801-825-1628","ADDRESS":"85 WEST 1800 NORTH","CITY":"SUNSET","ZIP":"84015","COUNTY":"DAVIS","X":-112.02776748,"Y":41.13963336},"geometry":{"type":"Point","coordinates":[-112.02777926966178,41.13963950202822]}},{"type":"Feature","properties":{"NAME":"ST. GEORGE FIRE DEPARTMENT STATION 5","TELEPHONE":"435-634-5821","ADDRESS":"100 NORTH DIXIE DRIVE","CITY":"SAINT GEORGE","ZIP":"84770","COUNTY":"WASHINGTON","X":-113.61950803,"Y":37.11093161},"geometry":{"type":"Point","coordinates":[-113.61951958429415,37.110937187785225]}},{"type":"Feature","properties":{"NAME":"SALT LAKE CITY FIRE DEPARTMENT STATION 4","TELEPHONE":"801-596-5244","ADDRESS":"830 EAST 11TH AVENUE","CITY":"SALT LAKE CITY","ZIP":"84103","COUNTY":"SALT LAKE","X":-111.86443194,"Y":40.78161989},"geometry":{"type":"Point","coordinates":[-111.86444356474226,40.781625967512355]}},{"type":"Feature","properties":{"NAME":"MONTICELLO FIRE DEPARTMENT","TELEPHONE":"435-587-2271","ADDRESS":"51 WEST 100 SOUTH","CITY":"MONTICELLO","ZIP":"84535","COUNTY":"SAN JUAN","X":-109.34431439,"Y":37.87082379},"geometry":{"type":"Point","coordinates":[-109.34432517037254,37.870829660285835]}},{"type":"Feature","properties":{"NAME":"UNIFIED FIRE AUTHORITY STATION 108","TELEPHONE":"801-743-7100","ADDRESS":"12601 EAST BIG COTTONWOOD CANYON ROAD","CITY":"BRIGHTON","ZIP":"84121","COUNTY":"SALT LAKE","X":-111.58424026,"Y":40.60264253},"geometry":{"type":"Point","coordinates":[-111.58425179888229,40.602648577255934]}},{"type":"Feature","properties":{"NAME":"MONA FIRE DEPARTMENT","TELEPHONE":"435-623-3349","ADDRESS":"160 SOUTH 200 EAST STREET","CITY":"MONA","ZIP":"84645","COUNTY":"JUAB","X":-111.851617,"Y":39.81403264},"geometry":{"type":"Point","coordinates":[-111.85162855642852,39.814038593418104]}},{"type":"Feature","properties":{"NAME":"SALT LAKE CITY FIRE DEPARTMENT STATION 2","TELEPHONE":"801-596-5242","ADDRESS":"270 WEST 300 NORTH","CITY":"SALT LAKE CITY","ZIP":"84103","COUNTY":"SALT LAKE","X":-111.8986591,"Y":40.77619878},"geometry":{"type":"Point","coordinates":[-111.89867081886314,40.77620490549032]}},{"type":"Feature","properties":{"NAME":"EAGLE MOUNTAIN FIRE DEPARTMENT STATION 1","TELEPHONE":"801-789-6715","ADDRESS":"1680 EAST HERITAGE DRIVE","CITY":"EAGLE MOUNTAIN","ZIP":"84005","COUNTY":"UTAH","X":-112.01129176,"Y":40.30699971},"geometry":{"type":"Point","coordinates":[-112.01130336425717,40.30700575568642]}},{"type":"Feature","properties":{"NAME":"PAYSON AMBULANCE ASSOCIATION","TELEPHONE":"801-465-5245","ADDRESS":"388 EAST 100 NORTH","CITY":"PAYSON","ZIP":"84651","COUNTY":"UTAH","X":-111.72784712,"Y":40.04428828},"geometry":{"type":"Point","coordinates":[-111.72785869904033,40.044294292864095]}},{"type":"Feature","properties":{"NAME":"LEHI FIRE DEPARTMENT AND EMERGENCY MEDICAL SERVICES","TELEPHONE":"801-768-7130","ADDRESS":"176 NORTH CENTER STREET","CITY":"LEHI","ZIP":"84043","COUNTY":"UTAH","X":-111.8487792,"Y":40.38996921},"geometry":{"type":"Point","coordinates":[-111.84879075419133,40.389975258079915]}},{"type":"Feature","properties":{"NAME":"AMERICAN FORK FIRE AND RESCUE","TELEPHONE":"801-763-3045","ADDRESS":"96 NORTH CENTER STREET","CITY":"AMERICAN FORK","ZIP":"84003","COUNTY":"UTAH","X":-111.79806114,"Y":40.3787532},"geometry":{"type":"Point","coordinates":[-111.79807275719236,40.3787592446252]}},{"type":"Feature","properties":{"NAME":"NORTH TOOELE COUNTY FIRE SERVICE DISTRICT STATION 2 - HEADQUARTERS - STANSBURY PARK","TELEPHONE":"435-882-6730","ADDRESS":"179 COUNTRY CLUB DRIVE","CITY":"STANSBURY PARK","ZIP":"84074","COUNTY":"TOOELE","X":-112.28988079,"Y":40.63635186},"geometry":{"type":"Point","coordinates":[-112.28989245749682,40.63635788657814]}},{"type":"Feature","properties":{"NAME":"SOUTH JORDAN FIRE DEPARTMENT STATION 61","TELEPHONE":"801-254-0948","ADDRESS":"10758 SOUTH REDWOOD ROAD","CITY":"SOUTH JORDAN","ZIP":"84095","COUNTY":"SALT LAKE","X":-111.93920766,"Y":40.55608645},"geometry":{"type":"Point","coordinates":[-111.93921930294118,40.556092499004194]}},{"type":"Feature","properties":{"NAME":"MURRAY CITY FIRE DEPARTMENT STATION 81 - HEADQUARTERS","TELEPHONE":"801-264-2781","ADDRESS":"40 EAST 4800 SOUTH","CITY":"MURRAY","ZIP":"84107","COUNTY":"SALT LAKE","X":-111.89036635,"Y":40.66658349},"geometry":{"type":"Point","coordinates":[-111.8903779557408,40.666589561102285]}},{"type":"Feature","properties":{"NAME":"MIDVALE CITY FIRE DEPARTMENT STATION 22 - HEADQUARTERS","TELEPHONE":"801-255-4441","ADDRESS":"607 EAST 7200 SOUTH","CITY":"MIDVALE","ZIP":"84047","COUNTY":"SALT LAKE","X":-111.8744105,"Y":40.62110172},"geometry":{"type":"Point","coordinates":[-111.874422149733,40.621107803083646]}},{"type":"Feature","properties":{"NAME":"SANDY CITY FIRE DEPARTMENT STATION 31","TELEPHONE":"801-568-2930","ADDRESS":"9010 SOUTH 150 EAST","CITY":"SANDY","ZIP":"84070","COUNTY":"SALT LAKE","X":-111.88653434,"Y":40.58747326},"geometry":{"type":"Point","coordinates":[-111.88654595204633,40.58747933877464]}},{"type":"Feature","properties":{"NAME":"UNIFIED FIRE AUTHORITY STATION 120","TELEPHONE":"801-254-4365","ADDRESS":"13000 SOUTH 2700 WEST","CITY":"RIVERTON","ZIP":"84065","COUNTY":"SALT LAKE","X":-111.95808836,"Y":40.51505864},"geometry":{"type":"Point","coordinates":[-111.95809994536086,40.51506466896012]}},{"type":"Feature","properties":{"NAME":"LAYTON CITY FIRE DEPARTMENT STATION 51 - HEADQUARTERS","TELEPHONE":"801-336-3940","ADDRESS":"530 NORTH 2200 WEST","CITY":"LAYTON","ZIP":"84041","COUNTY":"DAVIS","X":-112.00651055,"Y":41.06819034},"geometry":{"type":"Point","coordinates":[-112.00652225632894,41.06819641220079]}},{"type":"Feature","properties":{"NAME":"FARMINGTON CITY FIRE DEPARTMENT","TELEPHONE":"801-451-2842","ADDRESS":"82 NORTH 100 EAST","CITY":"FARMINGTON","ZIP":"84025","COUNTY":"DAVIS","X":-111.88492215,"Y":40.98175406},"geometry":{"type":"Point","coordinates":[-111.8849338632852,40.98176014945386]}},{"type":"Feature","properties":{"NAME":"CLINTON CITY FIRE DEPARTMENT","TELEPHONE":"801-614-0840","ADDRESS":"2153 NORTH 1500 WEST","CITY":"CLINTON","ZIP":"84015","COUNTY":"DAVIS","X":-112.05534533,"Y":41.14534755},"geometry":{"type":"Point","coordinates":[-112.05535710781135,41.145353661830256]}},{"type":"Feature","properties":{"NAME":"HONEYVILLE FIRE DEPARTMENT","TELEPHONE":"435-279-8425","ADDRESS":"6969 NORTH 2650 WEST","CITY":"HONEYVILLE","ZIP":"84314","COUNTY":"BOX ELDER","X":-112.08047378,"Y":41.6359803},"geometry":{"type":"Point","coordinates":[-112.08048563005008,41.63598648380753]}},{"type":"Feature","properties":{"NAME":"WILLARD CITY FIRE DEPARTMENT AND FIRST RESPONDERS","TELEPHONE":"435-734-9881","ADDRESS":"50 NORTH 100 WEST","CITY":"WILLARD","ZIP":"84340","COUNTY":"BOX ELDER","X":-112.03827861,"Y":41.40907839},"geometry":{"type":"Point","coordinates":[-112.0382904073939,41.4090845087764]}},{"type":"Feature","properties":{"NAME":"TREMONTON FIRE DEPARTMENT & AMBULANCE","TELEPHONE":"435-257-2625","ADDRESS":"102 SOUTH TREMONT STREET","CITY":"TREMONTON","ZIP":"84337","COUNTY":"BOX ELDER","X":-112.16707839,"Y":41.71070473},"geometry":{"type":"Point","coordinates":[-112.16709025455305,41.71071085158826]}},{"type":"Feature","properties":{"NAME":"WEST JORDAN CITY FIRE DEPARTMENT STATION 55","TELEPHONE":"801-260-7380","ADDRESS":"7750 SOUTH 6400 WEST","CITY":"WEST JORDAN","ZIP":"84084","COUNTY":"SALT LAKE","X":-112.04391145,"Y":40.61019733},"geometry":{"type":"Point","coordinates":[-112.04392313707615,40.610203383187184]}},{"type":"Feature","properties":{"NAME":"WASATCH COUNTY FIRE DISTRICT - JORDANELLE","TELEPHONE":"435-940-9636","ADDRESS":"10420 JORDANELLE PARKWAY","CITY":"HEBER CITY","ZIP":"84032","COUNTY":"WASATCH","X":-111.447192,"Y":40.63359899},"geometry":{"type":"Point","coordinates":[-111.447203559699,40.63360509935029]}},{"type":"Feature","properties":{"NAME":"PARK CITY FIRE DISTRICT STATION 35","TELEPHONE":"435-940-2500","ADDRESS":"2575 WEST KILBY ROAD","CITY":"PARK CITY","ZIP":"84098","COUNTY":"SUMMIT","X":-111.56158584,"Y":40.74180138},"geometry":{"type":"Point","coordinates":[-111.56159741120928,40.741807518420444]}},{"type":"Feature","properties":{"NAME":"SOUTH DAVIS METRO FIRE AGENCY STATION 83","TELEPHONE":"801-677-2400","ADDRESS":"125 SOUTH MAIN STREET","CITY":"CENTERVILLE","ZIP":"84014","COUNTY":"DAVIS","X":-111.87856749,"Y":40.91594899},"geometry":{"type":"Point","coordinates":[-111.87857912616806,40.91595508014541]}},{"type":"Feature","properties":{"NAME":"CITY OF SOUTH SALT LAKE FIRE DEPARTMENT STATION 42","TELEPHONE":"801-483-6043","ADDRESS":"3265 SOUTH 900 WEST","CITY":"SOUTH SALT LAKE CITY","ZIP":"84119","COUNTY":"SALT LAKE","X":-111.91655915,"Y":40.70115225},"geometry":{"type":"Point","coordinates":[-111.91657076509728,40.70115836218952]}},{"type":"Feature","properties":{"NAME":"EAGLE MOUNTAIN FIRE DEPARTMENT STATION 2","TELEPHONE":"801-789-5012","ADDRESS":"3785 PONY EXPRESS PARKWAY","CITY":"EAGLE MOUNTAIN","ZIP":"84005","COUNTY":"UTAH","X":-111.97159539,"Y":40.36289977},"geometry":{"type":"Point","coordinates":[-111.97160699959983,40.3629057986667]}},{"type":"Feature","properties":{"NAME":"LOGAN FIRE DEPARTMENT STATION 71 - HILLCREST","TELEPHONE":"435-716-9500","ADDRESS":"1244 EAST 1100 NORTH","CITY":"LOGAN","ZIP":"84341","COUNTY":"CACHE","X":-111.80314518,"Y":41.75081944},"geometry":{"type":"Point","coordinates":[-111.80315696388391,41.750825595788626]}},{"type":"Feature","properties":{"NAME":"MURRAY CITY FIRE DEPARTMENT STATION 82","TELEPHONE":"801-264-2782","ADDRESS":"163 EAST 5900 SOUTH","CITY":"MURRAY","ZIP":"84107","COUNTY":"SALT LAKE","X":-111.88700019,"Y":40.64310054},"geometry":{"type":"Point","coordinates":[-111.8870118255391,40.64310658788776]}},{"type":"Feature","properties":{"NAME":"SOUTH JORDAN FIRE DEPARTMENT STATION 62","TELEPHONE":"801-254-0948","ADDRESS":"4022 WEST SOUTH JORDAN PARKWAY","CITY":"SOUTH JORDAN","ZIP":"84095","COUNTY":"SALT LAKE","X":-111.98693732,"Y":40.56294385},"geometry":{"type":"Point","coordinates":[-111.98694896251953,40.56294985707507]}},{"type":"Feature","properties":{"NAME":"RICHFIELD VOLUNTEER FIRE DEPARTMENT","TELEPHONE":"435-896-5479","ADDRESS":"225 SOUTH MAIN STREET","CITY":"RICHFIELD","ZIP":"84701","COUNTY":"SEVIER","X":-112.08437463,"Y":38.76480573},"geometry":{"type":"Point","coordinates":[-112.08438603416533,38.764811601835845]}},{"type":"Feature","properties":{"NAME":"ROY CITY FIRE AND RESCUE STATION 32","TELEPHONE":"801-774-1101","ADDRESS":"3271 WEST 5200 SOUTH","CITY":"ROY","ZIP":"84067","COUNTY":"WEBER","X":-112.0587362,"Y":41.16861896},"geometry":{"type":"Point","coordinates":[-112.05874792192049,41.168625053074834]}},{"type":"Feature","properties":{"NAME":"RIVERDALE FIRE SERVICES","TELEPHONE":"801-394-7481","ADDRESS":"4334 SOUTH PARKER DRIVE","CITY":"RIVERDALE","ZIP":"84405","COUNTY":"WEBER","X":-112.00963113,"Y":41.18456041},"geometry":{"type":"Point","coordinates":[-112.00964288953992,41.184566573456834]}},{"type":"Feature","properties":{"NAME":"MENDON FIRE DEPARTMENT","TELEPHONE":"435-752-8888","ADDRESS":"50 EAST 100 NORTH","CITY":"MENDON","ZIP":"84325","COUNTY":"CACHE","X":-111.97548449,"Y":41.70956395},"geometry":{"type":"Point","coordinates":[-111.97549629245327,41.7095701313591]}},{"type":"Feature","properties":{"NAME":"TRENTON CITY FIRE DEPARTMENT","TELEPHONE":"435-563-9929","ADDRESS":"37 EAST MAIN STREET","CITY":"TRENTON","ZIP":"84338","COUNTY":"CACHE","X":-111.94244006,"Y":41.91787501},"geometry":{"type":"Point","coordinates":[-111.94245192193216,41.91788120102825]}},{"type":"Feature","properties":{"NAME":"WASHINGTON CITY FIRE DEPARTMENT","TELEPHONE":"435-673-4788","ADDRESS":"250 WEST BUENA VISTA BOULEVARD","CITY":"WASHINGTON CITY","ZIP":"84780","COUNTY":"WASHINGTON","X":-113.51342244,"Y":37.13985601},"geometry":{"type":"Point","coordinates":[-113.51343405321734,37.13986155141339]}},{"type":"Feature","properties":{"NAME":"BRIAN HEAD FIRE DEPARTMENT","TELEPHONE":"435-677-9924","ADDRESS":"535 BRIAN HEAD BOULEVARD","CITY":"BRIANHEAD","ZIP":"84719","COUNTY":"IRON","X":-112.850856,"Y":37.68916596},"geometry":{"type":"Point","coordinates":[-112.85086751276333,37.68917160373712]}},{"type":"Feature","properties":{"NAME":"KAYSVILLE CITY FIRE DEPARTMENT","TELEPHONE":"801-544-2860","ADDRESS":"175 SOUTH MAIN STREET","CITY":"KAYSVILLE","ZIP":"84037","COUNTY":"DAVIS","X":-111.93668352,"Y":41.03253568},"geometry":{"type":"Point","coordinates":[-111.93669522923233,41.032541814394165]}},{"type":"Feature","properties":{"NAME":"UTAH COUNTY FIRE DEPARTMENT","TELEPHONE":"801-851-4100","ADDRESS":"3075 NORTH MAIN STREET","CITY":"SPANISH FORK","ZIP":"84660","COUNTY":"UTAH","X":-111.65428138,"Y":40.1145087},"geometry":{"type":"Point","coordinates":[-111.65429291517239,40.114514691014676]}},{"type":"Feature","properties":{"NAME":"SOUTH DAVIS METRO FIRE AGENCY STATION 82","TELEPHONE":"801-677-2400","ADDRESS":"20 SOUTH UNITED STATES HIGHWAY 89","CITY":"NORTH SALT LAKE","ZIP":"84054","COUNTY":"DAVIS","X":-111.89514956,"Y":40.84943124},"geometry":{"type":"Point","coordinates":[-111.89516125196513,40.849437359665046]}},{"type":"Feature","properties":{"NAME":"WEST VALLEY CITY FIRE DEPARTMENT STATION 75","TELEPHONE":"801-963-3336","ADDRESS":"3660 SOUTH 1950 WEST","CITY":"WEST VALLEY CITY","ZIP":"84119","COUNTY":"SALT LAKE","X":-111.94383002,"Y":40.69318553},"geometry":{"type":"Point","coordinates":[-111.94384168844027,40.69319163463439]}},{"type":"Feature","properties":{"NAME":"SMITHFIELD FIRE AND EMERGENCY MEDICAL SERVICES STATION 43","TELEPHONE":"435-563-3056","ADDRESS":"6590 NORTH 2400 WEST","CITY":"AMALGA","ZIP":"84335","COUNTY":"CACHE","X":-111.8934332,"Y":41.85237049},"geometry":{"type":"Point","coordinates":[-111.89344505744577,41.852376709074406]}},{"type":"Feature","properties":{"NAME":"WEST VALLEY CITY FIRE DEPARTMENT STATION 74","TELEPHONE":"801-963-3336","ADDRESS":"5545 WEST 3100 SOUTH","CITY":"WEST VALLEY CITY","ZIP":"84120","COUNTY":"SALT LAKE","X":-112.02357971,"Y":40.70352067},"geometry":{"type":"Point","coordinates":[-112.0235913866893,40.70352674171369]}},{"type":"Feature","properties":{"NAME":"WEST VALLEY CITY FIRE DEPARTMENT STATION 71","TELEPHONE":"801-963-3336","ADDRESS":"4160 SOUTH 6400 WEST","CITY":"WEST VALLEY CITY","ZIP":"84128","COUNTY":"SALT LAKE","X":-112.04415022,"Y":40.68072016},"geometry":{"type":"Point","coordinates":[-112.04416190478707,40.68072622410659]}},{"type":"Feature","properties":{"NAME":"SMITHFIELD FIRE AND EMERGENCY MEDICAL SERVICES STATION 42","TELEPHONE":"435-563-3056","ADDRESS":"50 NORTH 100 EAST","CITY":"HYDE PARK","ZIP":"84318","COUNTY":"CACHE","X":-111.81633684,"Y":41.79991163},"geometry":{"type":"Point","coordinates":[-111.81634867622051,41.7999178703767]}},{"type":"Feature","properties":{"NAME":"NORTH DAVIS FIRE DISTRICT","TELEPHONE":"801-525-2850","ADDRESS":"88 EAST CENTER STREET","CITY":"CLEARFIELD","ZIP":"84015","COUNTY":"DAVIS","X":-112.02448931,"Y":41.11362266},"geometry":{"type":"Point","coordinates":[-112.02450108722127,41.11362873858161]}},{"type":"Feature","properties":{"NAME":"CLARKSTON FIRE DEPARTMENT","TELEPHONE":"435-755-1670","ADDRESS":"30 E CENTER STREET","CITY":"CLARKSTON","ZIP":"84305","COUNTY":"CACHE","X":-112.04994124,"Y":41.91989415},"geometry":{"type":"Point","coordinates":[-112.04995308740394,41.919900317293695]}},{"type":"Feature","properties":{"NAME":"LEWISTON CITY FIRE DEPARTMENT","TELEPHONE":"435-716-9400","ADDRESS":"60 EAST CENTER STREET","CITY":"LEWISTON","ZIP":"84320","COUNTY":"CACHE","X":-111.85528971,"Y":41.9755088},"geometry":{"type":"Point","coordinates":[-111.85530156999596,41.975514990365866]}},{"type":"Feature","properties":{"NAME":"WEST VALLEY CITY FIRE DEPARTMENT STATION 72","TELEPHONE":"801-963-3336","ADDRESS":"4314 WEST 4100 SOUTH","CITY":"WEST VALLEY CITY","ZIP":"84120","COUNTY":"SALT LAKE","X":-111.9942368,"Y":40.68232916},"geometry":{"type":"Point","coordinates":[-111.99424845512607,40.68233519366294]}},{"type":"Feature","properties":{"NAME":"LOA FIRE DEPARTMENT","TELEPHONE":"435-836-2189","ADDRESS":"45 NORTH MAIN STREET","CITY":"LOA","ZIP":"84747","COUNTY":"WAYNE","X":-111.64336199,"Y":38.40289485},"geometry":{"type":"Point","coordinates":[-111.64337334851484,38.40290067658492]}},{"type":"Feature","properties":{"NAME":"SOUTH OGDEN FIRE DEPARTMENT STATION 81","TELEPHONE":"801-622-2750","ADDRESS":"3950 SOUTH ADAMS AVENUE","CITY":"SOUTH OGDEN","ZIP":"84403","COUNTY":"WEBER","X":-111.96785296,"Y":41.19125155},"geometry":{"type":"Point","coordinates":[-111.96786474748353,41.19125763666324]}},{"type":"Feature","properties":{"NAME":"THATCHER - PENROSE FIRE DEPARTMENT AND WATER SERVICE DISTRICT","TELEPHONE":"435-854-3993","ADDRESS":"10100 NORTH 11600 WEST","CITY":"TREMONTON","ZIP":"84337","COUNTY":"BOX ELDER","X":-112.29861887,"Y":41.68718504},"geometry":{"type":"Point","coordinates":[-112.29863080235504,41.68719119634426]}},{"type":"Feature","properties":{"NAME":"STOCKTON FIRE DEPARTMENT","TELEPHONE":"435-882-1634","ADDRESS":"207 NORTH CONNOR AVENUE","CITY":"STOCKTON","ZIP":"84071","COUNTY":"TOOELE","X":-112.36076603,"Y":40.45502394},"geometry":{"type":"Point","coordinates":[-112.36077776198186,40.45502995654721]}},{"type":"Feature","properties":{"NAME":"SPRINGVILLE FIRE AND RESCUE","TELEPHONE":"801-491-5600","ADDRESS":"45 SOUTH MAIN STREET","CITY":"SPRINGVILLE","ZIP":"84663","COUNTY":"UTAH","X":-111.61013192,"Y":40.16619097},"geometry":{"type":"Point","coordinates":[-111.61014348756555,40.16619703948413]}},{"type":"Feature","properties":{"NAME":"SPANISH FORK FIRE DEPARTMENT AND AMBULANCE","TELEPHONE":"801-798-5075","ADDRESS":"370 NORTH MAIN STREET","CITY":"SPANISH FORK","ZIP":"84660","COUNTY":"UTAH","X":-111.65427252,"Y":40.114466},"geometry":{"type":"Point","coordinates":[-111.65428405778368,40.1144720362322]}},{"type":"Feature","properties":{"NAME":"UNIFIED FIRE AUTHORITY STATION 112","TELEPHONE":"801-278-6477","ADDRESS":"3612 EAST JUPITER DRIVE","CITY":"SALT LAKE CITY","ZIP":"84124","COUNTY":"SALT LAKE","X":-111.79345493,"Y":40.68603569},"geometry":{"type":"Point","coordinates":[-111.79346661682683,40.68604181013018]}},{"type":"Feature","properties":{"NAME":"SALT LAKE CITY FIRE DEPARTMENT STATION 13","TELEPHONE":"801-596-5253","ADDRESS":"2360 EAST PARLEYS WAY","CITY":"SALT LAKE CITY","ZIP":"84109","COUNTY":"SALT LAKE","X":-111.82284178,"Y":40.72385006},"geometry":{"type":"Point","coordinates":[-111.82285347780419,40.72385610144778]}},{"type":"Feature","properties":{"NAME":"SALEM FIRE DEPARTMENT AND AMBULANCE","TELEPHONE":"801-423-2770","ADDRESS":"30 WEST 100 SOUTH","CITY":"SALEM","ZIP":"84653","COUNTY":"UTAH","X":-111.67407591,"Y":40.05329954},"geometry":{"type":"Point","coordinates":[-111.67408747122266,40.053305598540135]}},{"type":"Feature","properties":{"NAME":"PROVO FIRE AND RESCUE STATION 3","TELEPHONE":"801-852-6323","ADDRESS":"601 WEST COLUMBIA LANE","CITY":"PROVO","ZIP":"84604","COUNTY":"UTAH","X":-111.66954152,"Y":40.25062816},"geometry":{"type":"Point","coordinates":[-111.66955301911173,40.250634242818876]}},{"type":"Feature","properties":{"NAME":"PLEASANT GROVE FIRE DEPARTMENT","TELEPHONE":"801-796-9496","ADDRESS":"120 SOUTH 100 EAST","CITY":"PLEASANT GROVE","ZIP":"84062","COUNTY":"UTAH","X":-111.73923839,"Y":40.3621562},"geometry":{"type":"Point","coordinates":[-111.73924996027381,40.36216222662989]}},{"type":"Feature","properties":{"NAME":"PAROWAN FIRE DEPARTMENT","TELEPHONE":"435-559-3641","ADDRESS":"280 WEST 200 SOUTH","CITY":"PAROWAN","ZIP":"84761","COUNTY":"IRON","X":-112.83129525,"Y":37.83907015},"geometry":{"type":"Point","coordinates":[-112.83130678458826,37.83907580870829]}},{"type":"Feature","properties":{"NAME":"SAN JUAN FIRE DEPARTMENT - MONUMENT VALLEY FIRE STATION","TELEPHONE":"435-727-3231","ADDRESS":"MEDICAL DRIVE","CITY":"MONUMENT VALLEY","ZIP":"84536","COUNTY":"SAN JUAN","X":-110.17692085,"Y":36.99921256},"geometry":{"type":"Point","coordinates":[-110.17693174123912,36.99921831283075]}},{"type":"Feature","properties":{"NAME":"SAN JUAN FIRE DEPARTMENT - MONTEZUMA CREEK FIRE STATION","TELEPHONE":"435-651-3351","ADDRESS":"TEXACO ROAD","CITY":"MONTEZUMA CREEK","ZIP":"84534","COUNTY":"SAN JUAN","X":-109.30588328,"Y":37.26019461},"geometry":{"type":"Point","coordinates":[-109.30589402170745,37.26020042401137]}},{"type":"Feature","properties":{"NAME":"LONE PEAK FIRE STATION","TELEPHONE":"801-763-5365","ADDRESS":"50 EAST 100 NORTH","CITY":"ALPINE","ZIP":"84004","COUNTY":"UTAH","X":-111.77713767,"Y":40.45410468},"geometry":{"type":"Point","coordinates":[-111.77714926317157,40.45411076194836]}},{"type":"Feature","properties":{"NAME":"HINCKLEY FIRE DEPARTMENT","TELEPHONE":"435-864-2843","ADDRESS":"85 EAST 200 NORTH","CITY":"HINCKLEY","ZIP":"84635","COUNTY":"MILLARD","X":-112.67022899,"Y":39.32662565},"geometry":{"type":"Point","coordinates":[-112.67024067682735,39.326631555035874]}},{"type":"Feature","properties":{"NAME":"FIELDING FIRE DEPARTMENT","TELEPHONE":"435-458-3682","ADDRESS":"154 SOUTH 100 WEST","CITY":"FIELDING","ZIP":"84311","COUNTY":"BOX ELDER","X":-112.118687,"Y":41.81226585},"geometry":{"type":"Point","coordinates":[-112.11869883485093,41.81227205399614]}},{"type":"Feature","properties":{"NAME":"EUREKA FIRE DEPARTMENT","TELEPHONE":"435-433-6915","ADDRESS":"262 WEST MAIN STREET","CITY":"EUREKA","ZIP":"84628","COUNTY":"JUAB","X":-112.11948946,"Y":39.95497612},"geometry":{"type":"Point","coordinates":[-112.11950111304463,39.95498212315675]}},{"type":"Feature","properties":{"NAME":"CEDAR MOUNTAIN FIRE DISTRICT STATION 1","TELEPHONE":"435-682-3226","ADDRESS":"10 NORTH MAMMOTH ROAD","CITY":"DUCK CREEK VILLAGE","ZIP":"84762","COUNTY":"KANE","X":-112.64445868,"Y":37.52216628},"geometry":{"type":"Point","coordinates":[-112.6444701475196,37.522171959494585]}},{"type":"Feature","properties":{"NAME":"CEDAR FORT FIRE DEPARTMENT","TELEPHONE":"801-768-2147","ADDRESS":"153 NORTH CHURCH STREET","CITY":"CEDAR FORT","ZIP":"84013","COUNTY":"UTAH","X":-112.10720576,"Y":40.32994627},"geometry":{"type":"Point","coordinates":[-112.10721742767873,40.3299523222359]}},{"type":"Feature","properties":{"NAME":"BRYCE CANYON NATIONAL PARK FIRE DEPARTMENT","TELEPHONE":"435-834-4800","ADDRESS":"BRYCE CANYON NATIONAL PARK RD","CITY":"BRYCE CANYON","ZIP":"84764","COUNTY":"GARFIELD","X":-112.17619668,"Y":37.63128785},"geometry":{"type":"Point","coordinates":[-112.17620804688892,37.631293516011226]}},{"type":"Feature","properties":{"NAME":"SAN JUAN FIRE DEPARTMENT - BLUFF VOLUNTEER FIRE STATION","TELEPHONE":"435-672-2281","ADDRESS":"EAST BLACK LOCUST","CITY":"BLUFF","ZIP":"84512","COUNTY":"SAN JUAN","X":-109.55436155,"Y":37.28394394},"geometry":{"type":"Point","coordinates":[-109.55437233581836,37.28394975475618]}},{"type":"Feature","properties":{"NAME":"OPHIR FIRE DEPARTMENT","TELEPHONE":"435-882-5600","ADDRESS":"47 OPHIR CANYON ROAD","CITY":"OPHIR","ZIP":"84071","COUNTY":"TOOELE","X":-112.2540314,"Y":40.36984216},"geometry":{"type":"Point","coordinates":[-112.25404306785663,40.369848160601464]}},{"type":"Feature","properties":{"NAME":"UNIFIED FIRE AUTHORITY STATION 113","TELEPHONE":"801-278-9987","ADDRESS":"9523 EAST BYPASS ROAD","CITY":"SANDY","ZIP":"84092","COUNTY":"SALT LAKE","X":-111.65427832,"Y":40.58393098},"geometry":{"type":"Point","coordinates":[-111.65428989503641,40.58393703140115]}},{"type":"Feature","properties":{"NAME":"TEASDALE FIRE DEPARTMENT","TELEPHONE":"435-836-2189","ADDRESS":"25 E RUSTLER ST","CITY":"TEASDALE","ZIP":"84773","COUNTY":"WAYNE","X":-111.47656426,"Y":38.28391582},"geometry":{"type":"Point","coordinates":[-111.4765755876943,38.283921663912736]}},{"type":"Feature","properties":{"NAME":"HANKSVILLE FIRE DEPARTMENT","TELEPHONE":"435-542-3285","ADDRESS":"45 WEST MAIN STREET","CITY":"HANKSVILLE","ZIP":"84734","COUNTY":"WAYNE","X":-110.7154826,"Y":38.37263579},"geometry":{"type":"Point","coordinates":[-110.71549374213203,38.37264170181908]}},{"type":"Feature","properties":{"NAME":"NORTH FORK FIRE DEPARTMENT","TELEPHONE":"801-225-7263","ADDRESS":"8838 ALPINE LOOP SCENIC BYWAY","CITY":"PROVO","ZIP":"84604","COUNTY":"UTAH","X":-111.57647012,"Y":40.39116998},"geometry":{"type":"Point","coordinates":[-111.57648169955974,40.391176081740184]}},{"type":"Feature","properties":{"NAME":"ELK RIDGE FIRE DEPARTMENT","TELEPHONE":"801-423-2300","ADDRESS":"80 EAST PARK DRIVE","CITY":"ELK RIDGE","ZIP":"84651","COUNTY":"UTAH","X":-111.68050083,"Y":40.01438723},"geometry":{"type":"Point","coordinates":[-111.6805123092712,40.01439324405982]}},{"type":"Feature","properties":{"NAME":"HELPER FIRE DEPARTMENT","TELEPHONE":"435-472-3572","ADDRESS":"97 SOUTH MAIN STREET","CITY":"HELPER","ZIP":"84526","COUNTY":"CARBON","X":-110.85435875,"Y":39.68523689},"geometry":{"type":"Point","coordinates":[-110.85437004213873,39.68524292670713]}},{"type":"Feature","properties":{"NAME":"ATK LAUNCH SYSTEMS FIRE DEPARTMENT","TELEPHONE":"435-863-2335","ADDRESS":"9160 NORTH STATE HIGHWAY 83","CITY":"CORINNE","ZIP":"84307","COUNTY":"BOX ELDER","X":-112.43457563,"Y":41.66294038},"geometry":{"type":"Point","coordinates":[-112.4345875543321,41.66294653615745]}},{"type":"Feature","properties":{"NAME":"UNIFIED FIRE AUTHORITY STATION 121","TELEPHONE":"801-245-2955","ADDRESS":"4146 WEST 12600 SOUTH","CITY":"RIVERTON","ZIP":"84065","COUNTY":"SALT LAKE","X":-111.98915717,"Y":40.52272868},"geometry":{"type":"Point","coordinates":[-111.9891688711649,40.522734750063535]}},{"type":"Feature","properties":{"NAME":"CANYONLANDS NATIONAL PARK - NEEDLES FIRE DISTRICT","TELEPHONE":"435-259-8859","ADDRESS":"SQUAW FLAT ROAD","CITY":"MOAB","ZIP":"84532","COUNTY":"SAN JUAN","X":-109.77533182,"Y":38.15032738},"geometry":{"type":"Point","coordinates":[-109.77534272586155,38.150333258061096]}},{"type":"Feature","properties":{"NAME":"CANYONLANDS NATIONAL PARK - ISLANDS IN THE PARK FIRE DISTRICT","TELEPHONE":"435-259-4712","ADDRESS":"OFF GRAND VIEW POINT ROAD","CITY":"MOAB","ZIP":"84532","COUNTY":"SAN JUAN","X":-109.82433559,"Y":38.45940062},"geometry":{"type":"Point","coordinates":[-109.82434655314398,38.45940657911666]}},{"type":"Feature","properties":{"NAME":"PROVO FIRE AND RESCUE STATION 5","TELEPHONE":"801-852-6325","ADDRESS":"275 SOUTH 700 EAST","CITY":"PROVO","ZIP":"84606","COUNTY":"UTAH","X":-111.64609715,"Y":40.23016572},"geometry":{"type":"Point","coordinates":[-111.64610869879198,40.23017172448556]}},{"type":"Feature","properties":{"NAME":"IVINS CITY FIRE DEPARTMENT","TELEPHONE":"435-674-5503","ADDRESS":"90 WEST CENTER STREET","CITY":"IVINS","ZIP":"84738","COUNTY":"WASHINGTON","X":-113.68129057,"Y":37.16854965},"geometry":{"type":"Point","coordinates":[-113.68130219083486,37.16855513761038]}},{"type":"Feature","properties":{"NAME":"SARATOGA SPRINGS FIRE DEPARTMENT AND EMERGENCY MEDICAL SERVICES","TELEPHONE":"801-766-6502","ADDRESS":"995 WEST 1200 NORTH","CITY":"SARATOGA SPRINGS","ZIP":"84043","COUNTY":"UTAH","X":-111.93977048,"Y":40.38312087},"geometry":{"type":"Point","coordinates":[-111.93978208938194,40.38312693951116]}},{"type":"Feature","properties":{"NAME":"PARK CITY FIRE DISTRICT STATION 38","TELEPHONE":"435-940-2500","ADDRESS":"1798 DEER VALLEY DRIVE","CITY":"PARK CITY","ZIP":"84060","COUNTY":"SUMMIT","X":-111.47836206,"Y":40.64573359},"geometry":{"type":"Point","coordinates":[-111.47837361154956,40.645739666964346]}},{"type":"Feature","properties":{"NAME":"PROVO FIRE AND RESCUE STATION 1","TELEPHONE":"801-852-6321","ADDRESS":"80 SOUTH 300 WEST","CITY":"PROVO","ZIP":"84601","COUNTY":"UTAH","X":-111.66435436,"Y":40.23265187},"geometry":{"type":"Point","coordinates":[-111.66436585201399,40.23265791989121]}},{"type":"Feature","properties":{"NAME":"BLUFFDALE FIRE DEPARTMENT","TELEPHONE":"801-254-2200","ADDRESS":"14350 SOUTH 2200 WEST","CITY":"BLUFFDALE","ZIP":"84065","COUNTY":"SALT LAKE","X":-111.94887729,"Y":40.49078655},"geometry":{"type":"Point","coordinates":[-111.94888886388088,40.49079262150872]}},{"type":"Feature","properties":{"NAME":"UNIFIED FIRE AUTHORITY STATION 106","TELEPHONE":"801-743-7200","ADDRESS":"1911 EAST 3300 SOUTH","CITY":"SALT LAKE CITY","ZIP":"84106","COUNTY":"SALT LAKE","X":-111.83709854,"Y":40.70023101},"geometry":{"type":"Point","coordinates":[-111.83711021836848,40.70023704780175]}},{"type":"Feature","properties":{"NAME":"UNIFIED FIRE AUTHORITY STATION 101","TELEPHONE":"801-743-7200","ADDRESS":"790 EAST 3900 SOUTH","CITY":"SALT LAKE CITY","ZIP":"84107","COUNTY":"SALT LAKE","X":-111.86873133,"Y":40.68670477},"geometry":{"type":"Point","coordinates":[-111.86874298523537,40.68671083258289]}},{"type":"Feature","properties":{"NAME":"UNIFIED FIRE AUTHORITY STATION 119","TELEPHONE":"801-743-7200","ADDRESS":"5025 EAST EMIGRATION CANYON ROAD","CITY":"SALT LAKE CITY","ZIP":"84108","COUNTY":"SALT LAKE","X":-111.76006249,"Y":40.7701969},"geometry":{"type":"Point","coordinates":[-111.76007412667519,40.77020298466863]}},{"type":"Feature","properties":{"NAME":"LEEDS AREA FIRE DEPARTMENT","TELEPHONE":"435-879-2881","ADDRESS":"730 NORTH MAIN STREET","CITY":"HURRICANE","ZIP":"84737","COUNTY":"WASHINGTON","X":-113.34977009,"Y":37.24489462},"geometry":{"type":"Point","coordinates":[-113.34978167868547,37.24490020976856]}},{"type":"Feature","properties":{"NAME":"NORTH DAVIS FIRE DISTRICT WEST POINT STATION","TELEPHONE":"801-525-2850","ADDRESS":"381 NORTH 3150 WEST","CITY":"WEST POINT","ZIP":"84015","COUNTY":"DAVIS","X":-112.08713985,"Y":41.11920767},"geometry":{"type":"Point","coordinates":[-112.0871516019721,41.11921373799174]}},{"type":"Feature","properties":{"NAME":"GREEN RIVER FIRE DEPARTMENT","TELEPHONE":"435-564-3229","ADDRESS":"135 WEST GREEN RIVER AVENUE","CITY":"GREEN RIVER","ZIP":"84525","COUNTY":"EMERY","X":-110.1643125,"Y":38.99292525},"geometry":{"type":"Point","coordinates":[-110.16432360146058,38.9929312404484]}},{"type":"Feature","properties":{"NAME":"CEDAR MOUNTAIN FIRE DISTRICT STATION 2","TELEPHONE":null,"ADDRESS":null,"CITY":null,"ZIP":"84710","COUNTY":"KANE","X":-112.51355455,"Y":37.49631308},"geometry":{"type":"Point","coordinates":[-112.51356599051934,37.496318721685896]}},{"type":"Feature","properties":{"NAME":"GLENDALE FIRE DEPARTMENT","TELEPHONE":null,"ADDRESS":null,"CITY":null,"ZIP":"84729","COUNTY":"KANE","X":-112.59581925,"Y":37.31724832},"geometry":{"type":"Point","coordinates":[-112.59583060594963,37.31725396189512]}},{"type":"Feature","properties":{"NAME":"EAST ZION FIRE STATION 2","TELEPHONE":null,"ADDRESS":null,"CITY":null,"ZIP":"84758","COUNTY":"KANE","X":-112.85609032,"Y":37.2371264},"geometry":{"type":"Point","coordinates":[-112.85610172103947,37.237131965516085]}},{"type":"Feature","properties":{"NAME":"EAST ZION FIRE STATION 1","TELEPHONE":null,"ADDRESS":null,"CITY":null,"ZIP":"84752","COUNTY":"KANE","X":-112.87666098,"Y":37.27082055},"geometry":{"type":"Point","coordinates":[-112.87667242868173,37.270826154964425]}},{"type":"Feature","properties":{"NAME":"ORDERVILLE FIRE DEPARTMENT","TELEPHONE":null,"ADDRESS":null,"CITY":"ORDERVILLE","ZIP":"84758","COUNTY":"KANE","X":-112.63510325,"Y":37.27569435},"geometry":{"type":"Point","coordinates":[-112.6351146358067,37.2756999293602]}}]}